     3.05           OBSERVATION DATA    M (MIXED)           RINEX VERSION / TYPE
RTKCONV demo5 b34b                      20210505 152452 UTC PGM / RUN BY / DATE 
XXXX                                                        MARKER NAME         
                                                            MARKER NUMBER       
                                                            OBSERVER / AGENCY   
                                                            REC # / TYPE / VERS 
                                    NONE                    ANT # / TYPE        
        0.0000        0.0000        0.0000                  ANTENNA: DELTA H/E/N
  4767793.3798   195582.3617  4218415.7892                  APPROX POSITION XYZ 
C    8 C2I C7I D2I D7I L2I L7I S2I S7I                      SYS / # / OBS TYPES 
E    8 C1X C7X D1X D7X L1X L7X S1X S7X                      SYS / # / OBS TYPES 
G    8 C1C C2X D1C D2X L1C L2X S1C S2X                      SYS / # / OBS TYPES 
R    8 C1C C2C D1C D2C L1C L2C S1C S2C                      SYS / # / OBS TYPES 
format: u-blox UBX                                          COMMENT             
                                                            MARKER TYPE         
G L1C                                                       SYS / PHASE SHIFT   
G L2X  0.00000                                              SYS / PHASE SHIFT   
R L1C                                                       SYS / PHASE SHIFT   
R L2C                                                       SYS / PHASE SHIFT   
E L1X  0.00000                                              SYS / PHASE SHIFT   
E L7X  0.00000                                              SYS / PHASE SHIFT   
C L2I                                                       SYS / PHASE SHIFT   
C L7I                                                       SYS / PHASE SHIFT   
  8 R05  1 R06 -4 R13 -2 R14 -7 R15  0 R17  4 R23  3 R24  2 GLONASS SLOT / FRQ #
 C1C    0.000 C1P    0.000 C2C    0.000 C2P    0.000        GLONASS COD/PHS/BIS 
     1.000                                                  INTERVAL            
  2020     4    29    12     4   50.2900000     GPS         TIME OF FIRST OBS   
  2020     4    29    12    26   26.9910000     GPS         TIME OF LAST OBS    
                                                            END OF HEADER      
> 2020 04 29 12 04 50.2900000  0 27
C12  20586625.797 1  20586633.076 1      2473.329        1912.908   107199962.41012  82893839.31712        39.000          41.000
C13  35815842.702 1  35815854.115 1      -529.651        -409.918   186502491.44212 144215602.06013        40.000          37.000
C24  19578894.096 1                      1263.782                   101952439.31111                        46.000
C26  18927335.430 1                     -1588.166                    98559601.94311                        45.000
C35  19817653.777 1                     -1877.321                   103195722.43111                        46.000
E02  24568091.460 1  24568103.970 1     -2525.221       -1935.102   129106191.45312  98925573.31114        40.000          36.000
E15  21343552.781 1  21343564.409 1      1961.621        1503.070   112161126.80511  85941688.73912        44.000          39.000
E27  21226990.999 1  21227001.487 1      1185.791         908.693   111548589.60911  85472338.52112        43.000          40.000
E30  19772414.968 1  19772425.797 1     -1121.033        -859.057   103904741.27211  79615365.17912        44.000          40.000
E36  24717407.557 1  24717420.527 1     -2946.455       -2257.863   129890852.67312  99526809.89415        39.000          31.000
G02  21716897.159 1                     -2645.673                   114123063.94012                        42.000
G12  20284137.132 1  20284141.144 1     -2978.780       -2321.170   106593859.69912  83060165.80013        42.000          37.000
G14  20075887.751 1                     -1991.459                   105499501.01412                        43.000
G18  20330319.738 1  20330322.540 1      3198.031        2492.013   106836550.74211  83249272.00512        43.000          39.000
G21  20152746.600 1                      2942.428                   105903397.57212                        43.000
G24  23117862.911 2  23117870.353 2     -3923.301       -3056.604   121485188.30715  94663813.80315        31.000          29.000
G25  18097785.866 1  18097789.012 1     -1839.293       -1433.150    95104506.00611  74107419.64512        45.000          40.000
G26                  20789028.712 4                      2017.645                    85127597.11415                        31.000
G29  17337889.875 1  17337890.721 1      -457.329        -356.234    91111225.52311  70995763.49711        47.000          41.000
G31  18527979.976 1  18527979.642 1      1488.314        1159.720    97365190.75211  75868979.19112        46.000          39.000
G32  20831242.692 1  20831247.749 1     -3145.239       -2450.690   109468918.47111  85300477.10112        44.000          41.000
R13  18411887.844 4  18411884.832 4     -3000.967       -2333.766    98318452.71713  76469895.17713        36.000          38.000
R14  16465990.194 4  16465993.705 4       385.887         300.021    87772992.93311  68267897.87611        49.000          46.000
R15  19000508.733 4  19000515.285 4      3131.071        2434.583   101532957.12315  78970104.42312        30.000          40.000
R17  18326797.766 4  18326800.765 4      3471.876        2700.353    98070395.65811  76276986.80911        46.000          46.000
R23  17796447.950 4  17796451.421 4     -3259.729       -2535.352    95198996.29911  74043677.20612        48.000          40.000
R24  16387363.905 4  16387366.814 4      -128.823        -100.278    87630599.13211  68157144.63411        48.000          45.000
